{
    "type": "FeatureCollection",
    "features": [
        {
            "type": "Feature",
            "geometry": {
                "type": "Point",
                "coordinates": [
                    91.715,
                    25.262222
                ]
            },
            "properties": {
                "title": "Meghalayan Stage",
                "marker-color": "#FDEDEC"
            }
        },
        {
            "type": "Feature",
            "geometry": {
                "type": "Point",
                "coordinates": [
                    -42.32,
                    75.1
                ]
            },
            "properties": {
                "title": "Northgrippian Stage",
                "marker-color": "#FDECE4"
            }
        },
        {
            "type": "Feature",
            "geometry": {
                "type": "Point",
                "coordinates": [
                    -42.32,
                    75.1
                ]
            },
            "properties": {
                "title": "Greenlandian Stage",
                "marker-color": "#FEECDB"
            }
        },
        {
            "type": "Feature",
            "geometry": {
                "type": "Point",
                "coordinates": [
                    140.146528,
                    35.294333
                ]
            },
            "properties": {
                "title": "Chibanian Stage",
                "marker-color": "#FFF2C7"
            }
        },
        {
            "type": "Feature",
            "geometry": {
                "type": "Point",
                "coordinates": [
                    17.1348,
                    39.0385
                ]
            },
            "properties": {
                "title": "Calabrian Stage",
                "marker-color": "#FFF2BA"
            }
        },
        {
            "type": "Feature",
            "geometry": {
                "type": "Point",
                "coordinates": [
                    14.2035,
                    37.1469
                ]
            },
            "properties": {
                "title": "Gelasian Stage",
                "marker-color": "#FFEDB3"
            }
        },
        {
            "type": "Feature",
            "geometry": {
                "type": "Point",
                "coordinates": [
                    13.4933,
                    37.2889
                ]
            },
            "properties": {
                "title": "Piacenzian Stage",
                "marker-color": "#FFFFBF"
            }
        },
        {
            "type": "Feature",
            "geometry": {
                "type": "Point",
                "coordinates": [
                    13.2806,
                    37.3917
                ]
            },
            "properties": {
                "title": "Zanclean Stage",
                "marker-color": "#FFFFB3"
            }
        },
        {
            "type": "Feature",
            "geometry": {
                "type": "Point",
                "coordinates": [
                    -6.8125,
                    33.936
                ]
            },
            "properties": {
                "title": "Messinian Stage",
                "marker-color": "#FFFF73"
            }
        },
        {
            "type": "Feature",
            "geometry": {
                "type": "Point",
                "coordinates": [
                    13.5694,
                    43.5867
                ]
            },
            "properties": {
                "title": "Tortonian Stage",
                "marker-color": "#FFFF66"
            }
        },
        {
            "type": "Feature",
            "geometry": {
                "type": "Point",
                "coordinates": [
                    14.3361,
                    35.9139
                ]
            },
            "properties": {
                "title": "Serravallian Stage",
                "marker-color": "#FFFF59"
            }
        },
        {
            "type": "Feature",
            "geometry": {
                "type": "Point",
                "coordinates": [
                    8.8364,
                    44.658
                ]
            },
            "properties": {
                "title": "Aquitanian Stage",
                "marker-color": "#FFFF33"
            }
        },
        {
            "type": "Feature",
            "geometry": {
                "type": "Point",
                "coordinates": [
                    12.467731,
                    43.646614
                ]
            },
            "properties": {
                "title": "Chattian Stage",
                "marker-color": "#FEE6AA"
            }
        },
        {
            "type": "Feature",
            "geometry": {
                "type": "Point",
                "coordinates": [
                    13.6011,
                    43.5328
                ]
            },
            "properties": {
                "title": "Rupelian Stage",
                "marker-color": "#FED99A"
            }
        },
        {
            "type": "Feature",
            "geometry": {
                "type": "Point",
                "coordinates": [
                    11.918019,
                    45.914167
                ]
            },
            "properties": {
                "title": "Priabonian Stage",
                "marker-color": "#FDCDA1"
            }
        },
        {
            "type": "Feature",
            "geometry": {
                "type": "Point",
                "coordinates": [
                    3.014336,
                    43.929575
                ]
            },
            "properties": {
                "title": "Lutetian Stage",
                "marker-color": "#FDB482"
            }
        },
        {
            "type": "Feature",
            "geometry": {
                "type": "Point",
                "coordinates": [
                    32.5311,
                    25.5
                ]
            },
            "properties": {
                "title": "Ypresian Stage",
                "marker-color": "#FCA773"
            }
        },
        {
            "type": "Feature",
            "geometry": {
                "type": "Point",
                "coordinates": [
                    -2.2594,
                    43.3
                ]
            },
            "properties": {
                "title": "Thanetian Stage",
                "marker-color": "#FDBF6F"
            }
        },
        {
            "type": "Feature",
            "geometry": {
                "type": "Point",
                "coordinates": [
                    -2.2594,
                    43.3
                ]
            },
            "properties": {
                "title": "Selandian Stage",
                "marker-color": "#FEBF65"
            }
        },
        {
            "type": "Feature",
            "geometry": {
                "type": "Point",
                "coordinates": [
                    8.6486,
                    36.153
                ]
            },
            "properties": {
                "title": "Danian Stage",
                "marker-color": "#FDB462"
            }
        },
        {
            "type": "Feature",
            "geometry": {
                "type": "Point",
                "coordinates": [
                    -1.1133,
                    43.679
                ]
            },
            "properties": {
                "title": "Maastrichtian Stage",
                "marker-color": "#F2FA8C"
            }
        },
        {
            "type": "Feature",
            "geometry": {
                "type": "Point",
                "coordinates": [
                    12.5828,
                    43.3627
                ]
            },
            "properties": {
                "title": "Campanian Stage",
                "marker-color": "#E6F47F"
            }
        },
        {
            "type": "Feature",
            "geometry": {
                "type": "Point",
                "coordinates": [
                    2.1968,
                    42.866
                ]
            },
            "properties": {
                "title": "Santonian Stage",
                "marker-color": "#D9EF74"
            }
        },
        {
            "type": "Feature",
            "geometry": {
                "type": "Point",
                "coordinates": [
                    10.3295,
                    52.124
                ]
            },
            "properties": {
                "title": "Coniacian Stage",
                "marker-color": "#CCE968"
            }
        },
        {
            "type": "Feature",
            "geometry": {
                "type": "Point",
                "coordinates": [
                    -104.7275,
                    38.282
                ]
            },
            "properties": {
                "title": "Turonian Stage",
                "marker-color": "#BFE35D"
            }
        },
        {
            "type": "Feature",
            "geometry": {
                "type": "Point",
                "coordinates": [
                    5.5119,
                    44.392
                ]
            },
            "properties": {
                "title": "Cenomanian Stage",
                "marker-color": "#B3DE53"
            }
        },
        {
            "type": "Feature",
            "geometry": {
                "type": "Point",
                "coordinates": [
                    5.311767,
                    44.496606
                ]
            },
            "properties": {
                "title": "Albian Stage",
                "marker-color": "#CCEA97"
            }
        },
        {
            "type": "Feature",
            "geometry": {
                "type": "Point",
                "coordinates": [
                    5.443722,
                    44.469444
                ]
            },
            "properties": {
                "title": "Hauterivian Stage",
                "marker-color": "#A6D975"
            }
        },
        {
            "type": "Feature",
            "geometry": {
                "type": "Point",
                "coordinates": [
                    -6.2455,
                    57.661
                ]
            },
            "properties": {
                "title": "Kimmeridgian Stage",
                "marker-color": "#CCECF4"
            }
        },
        {
            "type": "Feature",
            "geometry": {
                "type": "Point",
                "coordinates": [
                    6.3153,
                    43.9606
                ]
            },
            "properties": {
                "title": "Bathonian Stage",
                "marker-color": "#B3E2E3"
            }
        },
        {
            "type": "Feature",
            "geometry": {
                "type": "Point",
                "coordinates": [
                    -8.9042,
                    40.1992
                ]
            },
            "properties": {
                "title": "Bajocian Stage",
                "marker-color": "#A6DDE0"
            }
        },
        {
            "type": "Feature",
            "geometry": {
                "type": "Point",
                "coordinates": [
                    -1.8333,
                    41.1708
                ]
            },
            "properties": {
                "title": "Aalenian Stage",
                "marker-color": "#9AD9DD"
            }
        },
        {
            "type": "Feature",
            "geometry": {
                "type": "Point",
                "coordinates": [
                    -9.3853,
                    39.3708
                ]
            },
            "properties": {
                "title": "Toarcian Stage",
                "marker-color": "#99CEE3"
            }
        },
        {
            "type": "Feature",
            "geometry": {
                "type": "Point",
                "coordinates": [
                    -0.4975,
                    54.4069
                ]
            },
            "properties": {
                "title": "Pliensbachian Stage",
                "marker-color": "#80C5DD"
            }
        },
        {
            "type": "Feature",
            "geometry": {
                "type": "Point",
                "coordinates": [
                    -3.2364,
                    51.1909
                ]
            },
            "properties": {
                "title": "Sinemurian Stage",
                "marker-color": "#67BCD8"
            }
        },
        {
            "type": "Feature",
            "geometry": {
                "type": "Point",
                "coordinates": [
                    11.5306,
                    47.4839
                ]
            },
            "properties": {
                "title": "Hettangian Stage",
                "marker-color": "#4EB3D3"
            }
        },
        {
            "type": "Feature",
            "geometry": {
                "type": "Point",
                "coordinates": [
                    11.9303,
                    46.5269
                ]
            },
            "properties": {
                "title": "Carnian Stage",
                "marker-color": "#C99BCB"
            }
        },
        {
            "type": "Feature",
            "geometry": {
                "type": "Point",
                "coordinates": [
                    10.471,
                    45.8193
                ]
            },
            "properties": {
                "title": "Ladinian Stage",
                "marker-color": "#C983BF"
            }
        },
        {
            "type": "Feature",
            "geometry": {
                "type": "Point",
                "coordinates": [
                    28.8022,
                    45.0742
                ]
            },
            "properties": {
                "title": "Anisian Stage",
                "marker-color": "#BC75B7"
            }
        },
        {
            "type": "Feature",
            "geometry": {
                "type": "Point",
                "coordinates": [
                    78.0246,
                    31.9654
                ]
            },
            "properties": {
                "title": "Olenekian Stage",
                "marker-color": "#B051A5"
            }
        },
        {
            "type": "Feature",
            "geometry": {
                "type": "Point",
                "coordinates": [
                    119.7058,
                    31.0798
                ]
            },
            "properties": {
                "title": "Induan Stage",
                "marker-color": "#A4469F"
            }
        },
        {
            "type": "Feature",
            "geometry": {
                "type": "Point",
                "coordinates": [
                    119.7064,
                    31.0819
                ]
            },
            "properties": {
                "title": "Changhsingian Stage",
                "marker-color": "#FCC0B2"
            }
        },
        {
            "type": "Feature",
            "geometry": {
                "type": "Point",
                "coordinates": [
                    109.3211,
                    23.6953
                ]
            },
            "properties": {
                "title": "Wuchiapingian Stage",
                "marker-color": "#FCB4A2"
            }
        },
        {
            "type": "Feature",
            "geometry": {
                "type": "Point",
                "coordinates": [
                    -104.7892,
                    31.9091
                ]
            },
            "properties": {
                "title": "Capitanian Stage",
                "marker-color": "#FB9A85"
            }
        },
        {
            "type": "Feature",
            "geometry": {
                "type": "Point",
                "coordinates": [
                    -104.8328,
                    31.8658
                ]
            },
            "properties": {
                "title": "Wordian Stage",
                "marker-color": "#FB8D76"
            }
        },
        {
            "type": "Feature",
            "geometry": {
                "type": "Point",
                "coordinates": [
                    -104.8768,
                    31.8767
                ]
            },
            "properties": {
                "title": "Roadian Stage",
                "marker-color": "#FB8069"
            }
        },
        {
            "type": "Feature",
            "geometry": {
                "type": "Point",
                "coordinates": [
                    57.8914,
                    50.2458
                ]
            },
            "properties": {
                "title": "Asselian Stage",
                "marker-color": "#E36350"
            }
        },
        {
            "type": "Feature",
            "geometry": {
                "type": "Point",
                "coordinates": [
                    -114.7778,
                    36.7333
                ]
            },
            "properties": {
                "title": "Bashkirian Stage",
                "marker-color": "#99C2B5"
            }
        },
        {
            "type": "Feature",
            "geometry": {
                "type": "Point",
                "coordinates": [
                    109.45,
                    24.4333
                ]
            },
            "properties": {
                "title": "Visean Stage",
                "marker-color": "#A6B96C"
            }
        },
        {
            "type": "Feature",
            "geometry": {
                "type": "Point",
                "coordinates": [
                    3.3573,
                    43.5555
                ]
            },
            "properties": {
                "title": "Tournaisian Stage",
                "marker-color": "#8CB06C"
            }
        },
        {
            "type": "Feature",
            "geometry": {
                "type": "Point",
                "coordinates": [
                    3.0403,
                    43.4613
                ]
            },
            "properties": {
                "title": "Famennian Stage",
                "marker-color": "#F2EDB3"
            }
        },
        {
            "type": "Feature",
            "geometry": {
                "type": "Point",
                "coordinates": [
                    3.0868,
                    43.5032
                ]
            },
            "properties": {
                "title": "Frasnian  Stage",
                "marker-color": "#F2EDAD"
            }
        },
        {
            "type": "Feature",
            "geometry": {
                "type": "Point",
                "coordinates": [
                    -4.3541,
                    31.2374
                ]
            },
            "properties": {
                "title": "Givetian Stage",
                "marker-color": "#F1E185"
            }
        },
        {
            "type": "Feature",
            "geometry": {
                "type": "Point",
                "coordinates": [
                    6.4716,
                    50.1496
                ]
            },
            "properties": {
                "title": "Eifelian Stage",
                "marker-color": "#F1D576"
            }
        },
        {
            "type": "Feature",
            "geometry": {
                "type": "Point",
                "coordinates": [
                    67.3056,
                    39.2
                ]
            },
            "properties": {
                "title": "Emsian Stage",
                "marker-color": "#E5D075"
            }
        },
        {
            "type": "Feature",
            "geometry": {
                "type": "Point",
                "coordinates": [
                    14.3726,
                    50.0147
                ]
            },
            "properties": {
                "title": "Pragian Stage",
                "marker-color": "#E5C468"
            }
        },
        {
            "type": "Feature",
            "geometry": {
                "type": "Point",
                "coordinates": [
                    14.0611,
                    49.9008
                ]
            },
            "properties": {
                "title": "Lochkovian Stage",
                "marker-color": "#E5B75A"
            }
        },
        {
            "type": "Feature",
            "geometry": {
                "type": "Point",
                "coordinates": [
                    14.3249,
                    50.0277
                ]
            },
            "properties": {
                "title": "P\u0159\u00eddol\u00ed Series",
                "marker-color": "#E6F5E1"
            }
        },
        {
            "type": "Feature",
            "geometry": {
                "type": "Point",
                "coordinates": [
                    -2.7772,
                    52.3592
                ]
            },
            "properties": {
                "title": "Ludfordian Stage",
                "marker-color": "#D9F0DF"
            }
        },
        {
            "type": "Feature",
            "geometry": {
                "type": "Point",
                "coordinates": [
                    -2.7772,
                    52.3592
                ]
            },
            "properties": {
                "title": "Gorstian Stage",
                "marker-color": "#CCECDD"
            }
        },
        {
            "type": "Feature",
            "geometry": {
                "type": "Point",
                "coordinates": [
                    -2.5647,
                    52.6156
                ]
            },
            "properties": {
                "title": "Homerian Stage",
                "marker-color": "#CCEBD1"
            }
        },
        {
            "type": "Feature",
            "geometry": {
                "type": "Point",
                "coordinates": [
                    -2.6389,
                    52.5811
                ]
            },
            "properties": {
                "title": "Sheinwoodian Stage",
                "marker-color": "#BFE6C3"
            }
        },
        {
            "type": "Feature",
            "geometry": {
                "type": "Point",
                "coordinates": [
                    -3.79,
                    51.97
                ]
            },
            "properties": {
                "title": "Telychian Stage",
                "marker-color": "#BFE6CF"
            }
        },
        {
            "type": "Feature",
            "geometry": {
                "type": "Point",
                "coordinates": [
                    -3.7,
                    52.03
                ]
            },
            "properties": {
                "title": "Aeronian Stage",
                "marker-color": "#B3E1C2"
            }
        },
        {
            "type": "Feature",
            "geometry": {
                "type": "Point",
                "coordinates": [
                    -3.27,
                    55.44
                ]
            },
            "properties": {
                "title": "Rhuddanian Stage",
                "marker-color": "#A6DCB5"
            }
        },
        {
            "type": "Feature",
            "geometry": {
                "type": "Point",
                "coordinates": [
                    111.4197,
                    30.984
                ]
            },
            "properties": {
                "title": "Hirnantian Stage",
                "marker-color": "#A6DBAB"
            }
        },
        {
            "type": "Feature",
            "geometry": {
                "type": "Point",
                "coordinates": [
                    -96.0746,
                    34.4305
                ]
            },
            "properties": {
                "title": "Katian Stage",
                "marker-color": "#99D69F"
            }
        },
        {
            "type": "Feature",
            "geometry": {
                "type": "Point",
                "coordinates": [
                    13.3255,
                    55.7137
                ]
            },
            "properties": {
                "title": "Sandbian Stage",
                "marker-color": "#8CD094"
            }
        },
        {
            "type": "Feature",
            "geometry": {
                "type": "Point",
                "coordinates": [
                    118.4897,
                    28.853
                ]
            },
            "properties": {
                "title": "Darriwilian Stage",
                "marker-color": "#74C69C"
            }
        },
        {
            "type": "Feature",
            "geometry": {
                "type": "Point",
                "coordinates": [
                    110.374,
                    30.86
                ]
            },
            "properties": {
                "title": "Dapingian Stage",
                "marker-color": "#66C092"
            }
        },
        {
            "type": "Feature",
            "geometry": {
                "type": "Point",
                "coordinates": [
                    12.5024,
                    58.3589
                ]
            },
            "properties": {
                "title": "Floian Stage",
                "marker-color": "#41B087"
            }
        },
        {
            "type": "Feature",
            "geometry": {
                "type": "Point",
                "coordinates": [
                    -57.9653,
                    49.6829
                ]
            },
            "properties": {
                "title": "Tremadocian Stage",
                "marker-color": "#33A97E"
            }
        },
        {
            "type": "Feature",
            "geometry": {
                "type": "Point",
                "coordinates": [
                    118.6149,
                    28.8159
                ]
            },
            "properties": {
                "title": "Jiangshanian Stage",
                "marker-color": "#D9F0BB"
            }
        },        
        {
            "type": "Feature",
            "geometry": {
                "type": "Point",
                "coordinates": [
                    109.5257,
                    28.389
                ]
            },
            "properties": {
                "title": "Paibian Stage",
                "marker-color": "#B3E095"
            }
        },
        {
            "type": "Feature",
            "geometry": {
                "type": "Point",
                "coordinates": [
                    109.9647,
                    28.72
                ]
            },
            "properties": {
                "title": "Guzhangian Stage",
                "marker-color": "#CCDFAA"
            }
        },
        {
            "type": "Feature",
            "geometry": {
                "type": "Point",
                "coordinates": [
                    -112.9915,
                    39.511
                ]
            },
            "properties": {
                "title": "Drumian Stage",
                "marker-color": "#BFD99D"
            }
        },
        {
            "type": "Feature",
            "geometry": {
                "type": "Point",
                "coordinates": [
                    -55.831,
                    47.0762
                ]
            },
            "properties": {
                "title": "Fortunian Stage",
                "marker-color": "#99B575"
            }
        },
        {
            "type": "Feature",
            "geometry": {
                "type": "Point",
                "coordinates": [
                    138.6334,
                    -31.3314
                ]
            },
            "properties": {
                "title": "Ediacaran Period",
                "marker-color": "#FED96A"
            }
        }
    ]
}
